{
  "hubs": [
    {
      "id": "hub-us-west",
      "name": "US West Coast",
      "city": "San Francisco",
      "countryIso2": "US",
      "coordinates": [-122.4194, 37.7749],
      "type": "headquarters",
      "description": "Ripple headquarters and major validator cluster",
      "validators": 12,
      "projects": 45
    },
    {
      "id": "hub-us-east",
      "name": "US East Coast",
      "city": "New York",
      "countryIso2": "US",
      "coordinates": [-74.006, 40.7128],
      "type": "financial",
      "description": "Financial institutions and ETF issuers",
      "validators": 8,
      "projects": 22
    },
    {
      "id": "hub-london",
      "name": "London",
      "city": "London",
      "countryIso2": "GB",
      "coordinates": [-0.1276, 51.5074],
      "type": "financial",
      "description": "European financial hub and Ripple EU operations",
      "validators": 6,
      "projects": 18
    },
    {
      "id": "hub-frankfurt",
      "name": "Frankfurt",
      "city": "Frankfurt",
      "countryIso2": "DE",
      "coordinates": [8.6821, 50.1109],
      "type": "validator",
      "description": "XRPL Foundation validators and EU infrastructure",
      "validators": 10,
      "projects": 12
    },
    {
      "id": "hub-amsterdam",
      "name": "Amsterdam",
      "city": "Amsterdam",
      "countryIso2": "NL",
      "coordinates": [4.9041, 52.3676],
      "type": "development",
      "description": "XRPL Labs headquarters and Hooks development",
      "validators": 4,
      "projects": 25
    },
    {
      "id": "hub-tokyo",
      "name": "Tokyo",
      "city": "Tokyo",
      "countryIso2": "JP",
      "coordinates": [139.6917, 35.6895],
      "type": "partnership",
      "description": "SBI Holdings partnership hub and APAC operations",
      "validators": 8,
      "projects": 30
    },
    {
      "id": "hub-singapore",
      "name": "Singapore",
      "city": "Singapore",
      "countryIso2": "SG",
      "coordinates": [103.8198, 1.3521],
      "type": "regional_hq",
      "description": "Ripple APAC headquarters and MAS engagement",
      "validators": 6,
      "projects": 28
    },
    {
      "id": "hub-dubai",
      "name": "Dubai",
      "city": "Dubai",
      "countryIso2": "AE",
      "coordinates": [55.2708, 25.2048],
      "type": "emerging",
      "description": "VARA-licensed operations and MENA expansion",
      "validators": 3,
      "projects": 15
    },
    {
      "id": "hub-sydney",
      "name": "Sydney",
      "city": "Sydney",
      "countryIso2": "AU",
      "coordinates": [151.2093, -33.8688],
      "type": "validator",
      "description": "Australian validators and Pacific operations",
      "validators": 4,
      "projects": 8
    },
    {
      "id": "hub-toronto",
      "name": "Toronto",
      "city": "Toronto",
      "countryIso2": "CA",
      "coordinates": [-79.3832, 43.6532],
      "type": "academic",
      "description": "University of Waterloo validators and research",
      "validators": 3,
      "projects": 10
    },
    {
      "id": "hub-seoul",
      "name": "Seoul",
      "city": "Seoul",
      "countryIso2": "KR",
      "coordinates": [126.978, 37.5665],
      "type": "exchange",
      "description": "Korean exchange integrations and retail adoption",
      "validators": 2,
      "projects": 12
    },
    {
      "id": "hub-mumbai",
      "name": "Mumbai",
      "city": "Mumbai",
      "countryIso2": "IN",
      "coordinates": [72.8777, 19.076],
      "type": "emerging",
      "description": "Indian remittance corridor endpoint",
      "validators": 2,
      "projects": 8
    },
    {
      "id": "hub-moscow",
      "name": "Moscow",
      "city": "Moscow",
      "countryIso2": "RU",
      "coordinates": [37.6173, 55.7558],
      "type": "validator",
      "description": "Russian XRPL validators and CIS network nodes",
      "validators": 4,
      "projects": 6
    },
    {
      "id": "hub-stpetersburg",
      "name": "St. Petersburg",
      "city": "St. Petersburg",
      "countryIso2": "RU",
      "coordinates": [30.3351, 59.9343],
      "type": "development",
      "description": "Russian blockchain development and validator operations",
      "validators": 2,
      "projects": 4
    },
    {
      "id": "hub-shanghai",
      "name": "Shanghai",
      "city": "Shanghai",
      "countryIso2": "CN",
      "coordinates": [121.4737, 31.2304],
      "type": "financial",
      "description": "Chinese fintech hub with blockchain R&D operations",
      "validators": 3,
      "projects": 12
    },
    {
      "id": "hub-beijing",
      "name": "Beijing",
      "city": "Beijing",
      "countryIso2": "CN",
      "coordinates": [116.4074, 39.9042],
      "type": "development",
      "description": "Chinese government blockchain initiatives and research",
      "validators": 2,
      "projects": 8
    },
    {
      "id": "hub-hongkong",
      "name": "Hong Kong",
      "city": "Hong Kong",
      "countryIso2": "HK",
      "coordinates": [114.1694, 22.3193],
      "type": "financial",
      "description": "Hong Kong SFC-licensed crypto operations and APAC gateway",
      "validators": 5,
      "projects": 20
    },
    {
      "id": "hub-shenzhen",
      "name": "Shenzhen",
      "city": "Shenzhen",
      "countryIso2": "CN",
      "coordinates": [114.0579, 22.5431],
      "type": "development",
      "description": "Chinese tech hub with fintech innovation centers",
      "validators": 2,
      "projects": 10
    },
    {
      "id": "hub-saopaulo",
      "name": "São Paulo",
      "city": "São Paulo",
      "countryIso2": "BR",
      "coordinates": [-46.6333, -23.5505],
      "type": "financial",
      "description": "Latin American financial center and crypto exchange hub",
      "validators": 3,
      "projects": 14
    },
    {
      "id": "hub-rio",
      "name": "Rio de Janeiro",
      "city": "Rio de Janeiro",
      "countryIso2": "BR",
      "coordinates": [-43.1729, -22.9068],
      "type": "emerging",
      "description": "Brazilian tech and fintech startup ecosystem",
      "validators": 2,
      "projects": 6
    },
    {
      "id": "hub-buenosaires",
      "name": "Buenos Aires",
      "city": "Buenos Aires",
      "countryIso2": "AR",
      "coordinates": [-58.3816, -34.6037],
      "type": "emerging",
      "description": "Argentine crypto adoption hub and remittance corridor",
      "validators": 2,
      "projects": 8
    },
    {
      "id": "hub-santiago",
      "name": "Santiago",
      "city": "Santiago",
      "countryIso2": "CL",
      "coordinates": [-70.6693, -33.4489],
      "type": "financial",
      "description": "Chilean fintech ecosystem and South American gateway",
      "validators": 2,
      "projects": 5
    },
    {
      "id": "hub-bogota",
      "name": "Bogotá",
      "city": "Bogotá",
      "countryIso2": "CO",
      "coordinates": [-74.0721, 4.711],
      "type": "emerging",
      "description": "Colombian fintech hub and Andean regional center",
      "validators": 2,
      "projects": 6
    },
    {
      "id": "hub-lima",
      "name": "Lima",
      "city": "Lima",
      "countryIso2": "PE",
      "coordinates": [-77.0428, -12.0464],
      "type": "emerging",
      "description": "Peruvian crypto adoption and remittance services",
      "validators": 1,
      "projects": 4
    },
    {
      "id": "hub-mexicocity",
      "name": "Mexico City",
      "city": "Mexico City",
      "countryIso2": "MX",
      "coordinates": [-99.1332, 19.4326],
      "type": "financial",
      "description": "Mexican fintech hub and US-Mexico corridor endpoint",
      "validators": 4,
      "projects": 18
    },
    {
      "id": "hub-panama",
      "name": "Panama City",
      "city": "Panama City",
      "countryIso2": "PA",
      "coordinates": [-79.5199, 8.9824],
      "type": "financial",
      "description": "Central American financial center and crypto-friendly jurisdiction",
      "validators": 2,
      "projects": 5
    },
    {
      "id": "hub-costarica",
      "name": "San José",
      "city": "San José",
      "countryIso2": "CR",
      "coordinates": [-84.0907, 9.9281],
      "type": "development",
      "description": "Costa Rican tech hub and Central American node operations",
      "validators": 2,
      "projects": 4
    },
    {
      "id": "hub-elsalvador",
      "name": "San Salvador",
      "city": "San Salvador",
      "countryIso2": "SV",
      "coordinates": [-89.1872, 13.6929],
      "type": "emerging",
      "description": "El Salvador's Bitcoin/crypto-forward regulatory environment",
      "validators": 1,
      "projects": 3
    },
    {
      "id": "hub-guatemala",
      "name": "Guatemala City",
      "city": "Guatemala City",
      "countryIso2": "GT",
      "coordinates": [-90.5069, 14.6349],
      "type": "emerging",
      "description": "Guatemalan remittance corridor endpoint",
      "validators": 1,
      "projects": 2
    },
    {
      "id": "hub-riyadh",
      "name": "Riyadh",
      "city": "Riyadh",
      "countryIso2": "SA",
      "coordinates": [46.6753, 24.7136],
      "type": "financial",
      "description": "Saudi Arabia CBDC initiatives and Vision 2030 fintech projects",
      "validators": 2,
      "projects": 8
    },
    {
      "id": "hub-abudhabi",
      "name": "Abu Dhabi",
      "city": "Abu Dhabi",
      "countryIso2": "AE",
      "coordinates": [54.3773, 24.4539],
      "type": "regulatory",
      "description": "ADGM regulatory sandbox and institutional crypto services",
      "validators": 2,
      "projects": 10
    },
    {
      "id": "hub-doha",
      "name": "Doha",
      "city": "Doha",
      "countryIso2": "QA",
      "coordinates": [51.5310, 25.2854],
      "type": "emerging",
      "description": "Qatar Financial Centre blockchain initiatives",
      "validators": 1,
      "projects": 4
    },
    {
      "id": "hub-bahrain",
      "name": "Manama",
      "city": "Manama",
      "countryIso2": "BH",
      "coordinates": [50.5577, 26.2285],
      "type": "regulatory",
      "description": "Bahrain Central Bank digital asset regulations",
      "validators": 2,
      "projects": 5
    },
    {
      "id": "hub-telaviv",
      "name": "Tel Aviv",
      "city": "Tel Aviv",
      "countryIso2": "IL",
      "coordinates": [34.7818, 32.0853],
      "type": "development",
      "description": "Israeli tech hub with blockchain innovation",
      "validators": 3,
      "projects": 12
    },
    {
      "id": "hub-istanbul",
      "name": "Istanbul",
      "city": "Istanbul",
      "countryIso2": "TR",
      "coordinates": [28.9784, 41.0082],
      "type": "exchange",
      "description": "Turkish crypto exchange operations and regional gateway",
      "validators": 2,
      "projects": 6
    },
    {
      "id": "hub-cairo",
      "name": "Cairo",
      "city": "Cairo",
      "countryIso2": "EG",
      "coordinates": [31.2357, 30.0444],
      "type": "emerging",
      "description": "Egyptian fintech and North African gateway",
      "validators": 1,
      "projects": 3
    },
    {
      "id": "hub-johannesburg",
      "name": "Johannesburg",
      "city": "Johannesburg",
      "countryIso2": "ZA",
      "coordinates": [28.0473, -26.2041],
      "type": "financial",
      "description": "South African crypto hub and African financial center",
      "validators": 2,
      "projects": 7
    },
    {
      "id": "hub-nairobi",
      "name": "Nairobi",
      "city": "Nairobi",
      "countryIso2": "KE",
      "coordinates": [36.8219, -1.2921],
      "type": "emerging",
      "description": "East African tech hub and mobile money innovation",
      "validators": 1,
      "projects": 5
    },
    {
      "id": "hub-lagos",
      "name": "Lagos",
      "city": "Lagos",
      "countryIso2": "NG",
      "coordinates": [3.3792, 6.5244],
      "type": "emerging",
      "description": "Nigerian crypto adoption and remittance hub",
      "validators": 2,
      "projects": 6
    },
    {
      "id": "hub-manila",
      "name": "Manila",
      "city": "Manila",
      "countryIso2": "PH",
      "coordinates": [120.9842, 14.5995],
      "type": "exchange",
      "description": "Philippine crypto exchange hub and OFW remittance center",
      "validators": 3,
      "projects": 12
    },
    {
      "id": "hub-jakarta",
      "name": "Jakarta",
      "city": "Jakarta",
      "countryIso2": "ID",
      "coordinates": [106.8456, -6.2088],
      "type": "emerging",
      "description": "Indonesian crypto market and Southeast Asian gateway",
      "validators": 2,
      "projects": 8
    },
    {
      "id": "hub-bangkok",
      "name": "Bangkok",
      "city": "Bangkok",
      "countryIso2": "TH",
      "coordinates": [100.5018, 13.7563],
      "type": "emerging",
      "description": "Thai SEC-regulated crypto exchanges and ASEAN hub",
      "validators": 2,
      "projects": 7
    },
    {
      "id": "hub-kualalumpur",
      "name": "Kuala Lumpur",
      "city": "Kuala Lumpur",
      "countryIso2": "MY",
      "coordinates": [101.6869, 3.139],
      "type": "financial",
      "description": "Malaysian Islamic fintech and cross-border payments hub",
      "validators": 2,
      "projects": 6
    },
    {
      "id": "hub-hanoi",
      "name": "Hanoi",
      "city": "Hanoi",
      "countryIso2": "VN",
      "coordinates": [105.8342, 21.0278],
      "type": "emerging",
      "description": "Vietnamese crypto adoption and remittance corridor",
      "validators": 1,
      "projects": 4
    },
    {
      "id": "hub-taipei",
      "name": "Taipei",
      "city": "Taipei",
      "countryIso2": "TW",
      "coordinates": [121.5654, 25.033],
      "type": "development",
      "description": "Taiwanese tech hub with blockchain R&D",
      "validators": 2,
      "projects": 8
    }
  ],
  "corridors": [
    {
      "id": "corridor-us-mx",
      "name": "US → Mexico",
      "from": "hub-us-west",
      "to": "hub-mexicocity",
      "type": "remittance",
      "volume": "high",
      "description": "Primary US-Mexico remittance corridor"
    },
    {
      "id": "corridor-us-ph",
      "name": "US → Philippines",
      "from": "hub-us-west",
      "to": "hub-manila",
      "type": "remittance",
      "volume": "high",
      "description": "OFW remittance corridor"
    },
    {
      "id": "corridor-eu-uk",
      "name": "EU ↔ UK",
      "from": "hub-frankfurt",
      "to": "hub-london",
      "type": "business",
      "volume": "medium",
      "description": "Cross-channel business payments"
    },
    {
      "id": "corridor-sg-in",
      "name": "Singapore → India",
      "from": "hub-singapore",
      "to": "hub-mumbai",
      "type": "mixed",
      "volume": "medium",
      "description": "Tech sector and remittance flows"
    },
    {
      "id": "corridor-ae-pk",
      "name": "UAE → Pakistan",
      "from": "hub-dubai",
      "to": { "countryIso2": "PK", "coordinates": [67.0011, 24.8607] },
      "type": "remittance",
      "volume": "medium",
      "description": "Gulf worker remittances"
    },
    {
      "id": "corridor-jp-ph",
      "name": "Japan → Philippines",
      "from": "hub-tokyo",
      "to": "hub-manila",
      "type": "remittance",
      "volume": "medium",
      "description": "Japan-Philippines remittance route"
    },
    {
      "id": "corridor-us-br",
      "name": "US → Brazil",
      "from": "hub-us-east",
      "to": "hub-saopaulo",
      "type": "business",
      "volume": "low",
      "description": "Emerging business payments corridor"
    },
    {
      "id": "corridor-sg-au",
      "name": "Singapore ↔ Australia",
      "from": "hub-singapore",
      "to": "hub-sydney",
      "type": "business",
      "volume": "low",
      "description": "APAC business corridor"
    },
    {
      "id": "corridor-hk-cn",
      "name": "Hong Kong ↔ China",
      "from": "hub-hongkong",
      "to": "hub-shanghai",
      "type": "business",
      "volume": "medium",
      "description": "Cross-border business payments between HK and mainland"
    },
    {
      "id": "corridor-ru-cis",
      "name": "Russia → CIS",
      "from": "hub-moscow",
      "to": { "countryIso2": "KZ", "coordinates": [71.4491, 51.1801] },
      "type": "remittance",
      "volume": "low",
      "description": "Russia-Central Asia remittance flows"
    },
    {
      "id": "corridor-ae-in",
      "name": "UAE → India",
      "from": "hub-dubai",
      "to": "hub-mumbai",
      "type": "remittance",
      "volume": "high",
      "description": "Major Gulf-India remittance corridor"
    },
    {
      "id": "corridor-sa-ph",
      "name": "Saudi Arabia → Philippines",
      "from": "hub-riyadh",
      "to": "hub-manila",
      "type": "remittance",
      "volume": "medium",
      "description": "Saudi-Philippines OFW remittances"
    },
    {
      "id": "corridor-us-gt",
      "name": "US → Guatemala",
      "from": "hub-us-west",
      "to": "hub-guatemala",
      "type": "remittance",
      "volume": "medium",
      "description": "Central American remittance corridor"
    },
    {
      "id": "corridor-us-sv",
      "name": "US → El Salvador",
      "from": "hub-us-west",
      "to": "hub-elsalvador",
      "type": "remittance",
      "volume": "medium",
      "description": "US-El Salvador crypto remittances"
    },
    {
      "id": "corridor-br-ar",
      "name": "Brazil ↔ Argentina",
      "from": "hub-saopaulo",
      "to": "hub-buenosaires",
      "type": "business",
      "volume": "low",
      "description": "Mercosur business payments"
    },
    {
      "id": "corridor-za-ng",
      "name": "South Africa → Nigeria",
      "from": "hub-johannesburg",
      "to": "hub-lagos",
      "type": "business",
      "volume": "low",
      "description": "African cross-border commerce"
    },
    {
      "id": "corridor-ae-eg",
      "name": "UAE → Egypt",
      "from": "hub-dubai",
      "to": "hub-cairo",
      "type": "remittance",
      "volume": "medium",
      "description": "Gulf-Egypt worker remittances"
    },
    {
      "id": "corridor-sg-id",
      "name": "Singapore → Indonesia",
      "from": "hub-singapore",
      "to": "hub-jakarta",
      "type": "mixed",
      "volume": "medium",
      "description": "Singapore-Indonesia cross-border flows"
    },
    {
      "id": "corridor-sg-th",
      "name": "Singapore → Thailand",
      "from": "hub-singapore",
      "to": "hub-bangkok",
      "type": "mixed",
      "volume": "medium",
      "description": "ASEAN business and tourism payments"
    },
    {
      "id": "corridor-kr-vn",
      "name": "South Korea → Vietnam",
      "from": "hub-seoul",
      "to": "hub-hanoi",
      "type": "remittance",
      "volume": "medium",
      "description": "Korean-Vietnamese worker remittances"
    }
  ]
}
